[
  {
    "name": "Name",
    "photo": "Photo",
    "admArea": "AdmArea",
    "district": "District",
    "location": "Location",
    "registrationNumber": "RegistrationNumber",
    "state": "State",
    "locationType": "LocationType",
    "global_id": "global_id",
    "geodata_center": "geodata_center",
    "geoarea": "geoarea"
  },
  {
    "name": "Название объекта",
    "photo": "Фотография",
    "admArea": "Административный округ по адресу",
    "district": "Район",
    "location": "Месторасположение",
    "registrationNumber": "Государственный регистрационный знак",
    "state": "Состояние регистрации",
    "locationType": "Тип места расположения",
    "global_id": "global_id",
    "geodata_center": "geodata_center",
    "geoarea": "geoarea"
  },
  {
    "name": "FX SIMULATION X2",
    "photo": "bd5f4bcd-362e-4ac3-a4ae-f96d56007584",
    "admArea": "Южный административный округ",
    "district": "район Чертаново Северное",
    "location": "ТРЦ «ГЛОБАЛ СИТИ»",
    "registrationNumber": "0262-77",
    "state": "аттракцион зарегистрирован",
    "locationType": "торгово-развлекательный комплекс",
    "global_id": "2386886319",
    "geodata_center": "",
    "geoarea": ""
  },
  {
    "name": "СКОРОСТНАЯ ДОРОГА LONATO KARTING",
    "photo": "33f8f7a5-c7c7-4767-8c31-161790f987da",
    "admArea": "Южный административный округ",
    "district": "Нагорный район",
    "location": "LONATO KARTING",
    "registrationNumber": "2418-77",
    "state": "аттракцион зарегистрирован",
    "locationType": "торгово-развлекательный комплекс",
    "global_id": "2387014171",
    "geodata_center": "",
    "geoarea": ""
  },
  {
    "name": "OCTOPUS RIDE",
    "photo": "42bdc4cf-9696-4a1a-b84e-5955591fb42a",
    "admArea": "Южный административный округ",
    "district": "район Нагатинский Затон",
    "location": "ТЕМАТИЧЕСКИЙ ПАРК РАЗВЛЕЧЕНИЙ ОСТРОВ МЕЧТЫ",
    "registrationNumber": "2201-77",
    "state": "аттракцион зарегистрирован",
    "locationType": "торгово-развлекательный комплекс",
    "global_id": "2386835262",
    "geodata_center": "",
    "geoarea": ""
  },
  {
    "name": "SWIRLING CUPCAKES",
    "photo": "7fdae3dd-cedb-4091-86fd-d3ed14e082c0",
    "admArea": "Южный административный округ",
    "district": "район Нагатинский Затон",
    "location": "ТЕМАТИЧЕСКИЙ ПАРК РАЗВЛЕЧЕНИЙ ОСТРОВ МЕЧТЫ",
    "registrationNumber": "2202-77",
    "state": "аттракцион зарегистрирован",
    "locationType": "торгово-развлекательный комплекс",
    "global_id": "2386835263",
    "geodata_center": "",
    "geoarea": ""
  },
  {
    "name": "FLYING AIRPLANE 14 (КАРУСЕЛЬ ПТЕРОДАКТИЛИ)",
    "photo": "d9a87645-f024-49a9-9320-4f71a7aa2ac5",
    "admArea": "Южный административный округ",
    "district": "район Нагатинский Затон",
    "location": "ТЕМАТИЧЕСКИЙ ПАРК РАЗВЛЕЧЕНИЙ ОСТРОВ МЕЧТЫ",
    "registrationNumber": "2207-77",
    "state": "аттракцион зарегистрирован",
    "locationType": "торгово-развлекательный комплекс",
    "global_id": "2386835264",
    "geodata_center": "",
    "geoarea": ""
  },
  {
    "name": "DROP TOWER 25MT",
    "photo": "55eafdc6-9b6e-4a51-a6fc-d90da9666260",
    "admArea": "Южный административный округ",
    "district": "район Чертаново Северное",
    "location": "ТРЦ «ГЛОБАЛ СИТИ»",
    "registrationNumber": "0256-77",
    "state": "аттракцион зарегистрирован",
    "locationType": "торгово-развлекательный комплекс",
    "global_id": "2386886321",
    "geodata_center": "",
    "geoarea": ""
  },
  {
    "name": "«FARMER SMURFS WINDMILL» («КОЛЕСО ОБОЗРЕНИЯ 8 МЕТРОВ»)",
    "photo": "071f69f8-b939-43cf-8568-0c73b77f76f9",
    "admArea": "Южный административный округ",
    "district": "район Нагатинский Затон",
    "location": "ТЕМАТИЧЕСКИЙ ПАРК РАЗВЛЕЧЕНИЙ ОСТРОВ МЕЧТЫ",
    "registrationNumber": "2389-77",
    "state": "аттракцион зарегистрирован",
    "locationType": "торгово-развлекательный комплекс",
    "global_id": "2386975264",
    "geodata_center": "",
    "geoarea": ""
  },
  {
    "name": "JUNGLE CARROUSEL",
    "photo": "51e47a86-d988-4fef-b013-4e13db775315",
    "admArea": "Южный административный округ",
    "district": "район Орехово-Борисово Северное",
    "location": "ТЦ КАШИРСКАЯ ПЛАЗА",
    "registrationNumber": "2238-77",
    "state": "аттракцион зарегистрирован",
    "locationType": "торгово-развлекательный комплекс",
    "global_id": "2386835267",
    "geodata_center": "",
    "geoarea": ""
  },
  {
    "name": "FLYING TIGERS 8",
    "photo": "2a2f3b0f-9986-4fe9-ad52-a741c23a00d9",
    "admArea": "Южный административный округ",
    "district": "район Нагатинский Затон",
    "location": "ТЕМАТИЧЕСКИЙ ПАРК РАЗВЛЕЧЕНИЙ ОСТРОВ МЕЧТЫ",
    "registrationNumber": "2376-77",
    "state": "аттракцион зарегистрирован",
    "locationType": "торгово-развлекательный комплекс",
    "global_id": "2386975254",
    "geodata_center": "",
    "geoarea": ""
  },
  {
    "name": "U2 MIRAGE",
    "photo": "89e81524-f540-41db-b288-94820f8fd849",
    "admArea": "Южный административный округ",
    "district": "район Чертаново Северное",
    "location": "ТРЦ «ГЛОБАЛ СИТИ»",
    "registrationNumber": "0257-77",
    "state": "аттракцион зарегистрирован",
    "locationType": "торгово-развлекательный комплекс",
    "global_id": "2386975253",
    "geodata_center": "",
    "geoarea": ""
  },
  {
    "name": "MOVIE BASE XS («ЛЕТАЮЩИЙ ТЕАТР»)",
    "photo": "594028bf-b8c0-429c-8e7d-30c82f09355f",
    "admArea": "Южный административный округ",
    "district": "район Нагатинский Затон",
    "location": "ТЕМАТИЧЕСКИЙ ПАРК РАЗВЛЕЧЕНИЙ ОСТРОВ МЕЧТЫ",
    "registrationNumber": "2319-77",
    "state": "аттракцион зарегистрирован",
    "locationType": "торгово-развлекательный комплекс",
    "global_id": "2386835269",
    "geodata_center": "",
    "geoarea": ""
  },
  {
    "name": "СПЕЙС РИФТ 2Х",
    "photo": "4f4b1fb8-0564-4568-acab-9b690646cda0",
    "admArea": "Южный административный округ",
    "district": "район Нагатино-Садовники",
    "location": "ТРЦ «НОРА»",
    "registrationNumber": "2324-77",
    "state": "аттракцион зарегистрирован",
    "locationType": "торгово-развлекательный комплекс",
    "global_id": "2386835270",
    "geodata_center": "",
    "geoarea": ""
  },
  {
    "name": "VENETIAN CAROUSEL MERRY GO ROUND",
    "photo": "d282d288-007b-48c7-9d6d-e0f6f50384d0",
    "admArea": "Южный административный округ",
    "district": "район Нагатинский Затон",
    "location": "ТЕМАТИЧЕСКИЙ ПАРК РАЗВЛЕЧЕНИЙ ОСТРОВ МЕЧТЫ",
    "registrationNumber": "2367-77",
    "state": "аттракцион зарегистрирован",
    "locationType": "торгово-развлекательный комплекс",
    "global_id": "2386975250",
    "geodata_center": "",
    "geoarea": ""
  },
  {
    "name": "«ЛЕТНАЯ ШКОЛА» («SKY FLY»)",
    "photo": "452f14a1-13fe-4f38-910d-b52990527ab1",
    "admArea": "Южный административный округ",
    "district": "район Нагатинский Затон",
    "location": "ТЕМАТИЧЕСКИЙ ПАРК РАЗВЛЕЧЕНИЙ ОСТРОВ МЕЧТЫ",
    "registrationNumber": "0285-77",
    "state": "аттракцион зарегистрирован",
    "locationType": "торгово-развлекательный комплекс",
    "global_id": "2386886271",
    "geodata_center": "",
    "geoarea": ""
  },
  {
    "name": "«МОЛОТ СУДЬБЫ» («MAXI DANCE PARTY 32»)",
    "photo": "37ce31bb-7f62-4b3b-9d45-a26cfe4477fa",
    "admArea": "Южный административный округ",
    "district": "район Нагатинский Затон",
    "location": "ТЕМАТИЧЕСКИЙ ПАРК РАЗВЛЕЧЕНИЙ ОСТРОВ МЕЧТЫ",
    "registrationNumber": "0287-77",
    "state": "аттракцион зарегистрирован",
    "locationType": "торгово-развлекательный комплекс",
    "global_id": "2386886273",
    "geodata_center": "",
    "geoarea": ""
  },
  {
    "name": "«ПОЮЩАЯ КАРУСЕЛЬ» («CIRCUS SWING»)",
    "photo": "27c0fd3a-e422-4d09-b71c-ad28c5354026",
    "admArea": "Южный административный округ",
    "district": "район Нагатинский Затон",
    "location": "ТЕМАТИЧЕСКИЙ ПАРК РАЗВЛЕЧЕНИЙ ОСТРОВ МЕЧТЫ",
    "registrationNumber": "0288-77",
    "state": "аттракцион зарегистрирован",
    "locationType": "торгово-развлекательный комплекс",
    "global_id": "2386886276",
    "geodata_center": "",
    "geoarea": ""
  },
  {
    "name": "MAGIC BIKES 8",
    "photo": "2796a92f-ecef-4b0e-ba33-1ea3ceda7255",
    "admArea": "Южный административный округ",
    "district": "район Нагатинский Затон",
    "location": "ТЕМАТИЧЕСКИЙ ПАРК РАЗВЛЕЧЕНИЙ ОСТРОВ МЕЧТЫ",
    "registrationNumber": "0294-77",
    "state": "аттракцион зарегистрирован",
    "locationType": "торгово-развлекательный комплекс",
    "global_id": "2386886278",
    "geodata_center": "",
    "geoarea": ""
  },
  {
    "name": "NEBULAZ",
    "photo": "a2dd0f0e-01ba-4132-bba6-12d2394de877",
    "admArea": "Южный административный округ",
    "district": "район Нагатинский Затон",
    "location": "ТЕМАТИЧЕСКИЙ ПАРК РАЗВЛЕЧЕНИЙ ОСТРОВ МЕЧТЫ",
    "registrationNumber": "2332-77",
    "state": "аттракцион зарегистрирован",
    "locationType": "торгово-развлекательный комплекс",
    "global_id": "2386886291",
    "geodata_center": "",
    "geoarea": ""
  },
  {
    "name": "KITE FLYER 12",
    "photo": "47ceb856-1b88-4570-b60c-8b17a6334b20",
    "admArea": "Южный административный округ",
    "district": "район Нагатинский Затон",
    "location": "ТЕМАТИЧЕСКИЙ ПАРК РАЗВЛЕЧЕНИЙ ОСТРОВ МЕЧТЫ",
    "registrationNumber": "2336-77",
    "state": "аттракцион зарегистрирован",
    "locationType": "торгово-развлекательный комплекс",
    "global_id": "2386886299",
    "geodata_center": "",
    "geoarea": ""
  },
  {
    "name": "JUMP AROUND 6",
    "photo": "6f2300cb-3d42-44b5-8a5b-1593ff035e86",
    "admArea": "Южный административный округ",
    "district": "район Нагатинский Затон",
    "location": "ТЕМАТИЧЕСКИЙ ПАРК РАЗВЛЕЧЕНИЙ ОСТРОВ МЕЧТЫ",
    "registrationNumber": "2337-77",
    "state": "аттракцион зарегистрирован",
    "locationType": "торгово-развлекательный комплекс",
    "global_id": "2386886303",
    "geodata_center": "",
    "geoarea": ""
  },
  {
    "name": "JUMPIN STAR",
    "photo": "a99da2cc-76ee-4c34-bab3-ec531cca5fb1",
    "admArea": "Южный административный округ",
    "district": "район Нагатинский Затон",
    "location": "ТЕМАТИЧЕСКИЙ ПАРК РАЗВЛЕЧЕНИЙ ОСТРОВ МЕЧТЫ",
    "registrationNumber": "2338-77",
    "state": "аттракцион зарегистрирован",
    "locationType": "торгово-развлекательный комплекс",
    "global_id": "2386886306",
    "geodata_center": "",
    "geoarea": ""
  },
  {
    "name": "SUPER HAPPY SWING",
    "photo": "7c6951b5-2c6d-48bf-aed2-46216865a074",
    "admArea": "Южный административный округ",
    "district": "район Нагатинский Затон",
    "location": "ТЕМАТИЧЕСКИЙ ПАРК РАЗВЛЕЧЕНИЙ ОСТРОВ МЕЧТЫ",
    "registrationNumber": "2339-77",
    "state": "аттракцион зарегистрирован",
    "locationType": "торгово-развлекательный комплекс",
    "global_id": "2386886309",
    "geodata_center": "",
    "geoarea": ""
  },
  {
    "name": "AIR FORCE",
    "photo": "103c47df-017f-404f-9f75-1a6951dbd0e3",
    "admArea": "Южный административный округ",
    "district": "район Чертаново Северное",
    "location": "ТРЦ «ГЛОБАЛ СИТИ»",
    "registrationNumber": "0249-77",
    "state": "аттракцион зарегистрирован",
    "locationType": "торгово-развлекательный комплекс",
    "global_id": "2386886315",
    "geodata_center": "",
    "geoarea": ""
  },
  {
    "name": "WIND STAR Z",
    "photo": "5d79da84-5ebb-4320-8681-0e6643f7ff12",
    "admArea": "Южный административный округ",
    "district": "район Нагатинский Затон",
    "location": "ТЕМАТИЧЕСКИЙ ПАРК РАЗВЛЕЧЕНИЙ ОСТРОВ МЕЧТЫ",
    "registrationNumber": "2200-77",
    "state": "аттракцион зарегистрирован",
    "locationType": "торгово-развлекательный комплекс",
    "global_id": "2386835261",
    "geodata_center": "",
    "geoarea": ""
  },
  {
    "name": "3D-TOWER 24 MT («МЕДИА БАШНЯ ПАДЕНИЯ»)",
    "photo": "bd11b48f-efe0-43e3-aa57-621af31f4b77",
    "admArea": "Южный административный округ",
    "district": "район Нагатинский Затон",
    "location": "ТЕМАТИЧЕСКИЙ ПАРК РАЗВЛЕЧЕНИЙ ОСТРОВ МЕЧТЫ",
    "registrationNumber": "2258-77",
    "state": "аттракцион зарегистрирован",
    "locationType": "торгово-развлекательный комплекс",
    "global_id": "2386835266",
    "geodata_center": "",
    "geoarea": ""
  },
  {
    "name": "«ЛЕДЯНАЯ КАРУСЕЛЬ» («FLYNG SWINGER 64»)",
    "photo": "7ebb9290-ae0a-437d-831e-30d2924ac73d",
    "admArea": "Южный административный округ",
    "district": "район Нагатинский Затон",
    "location": "ТЕМАТИЧЕСКИЙ ПАРК РАЗВЛЕЧЕНИЙ ОСТРОВ МЕЧТЫ",
    "registrationNumber": "0282-77",
    "state": "аттракцион зарегистрирован",
    "locationType": "торгово-развлекательный комплекс",
    "global_id": "2386772632",
    "geodata_center": "",
    "geoarea": ""
  },
  {
    "name": "DOG UP",
    "photo": "14161758-bb58-4148-b223-db1728d1a1dd",
    "admArea": "Южный административный округ",
    "district": "район Москворечье-Сабурово",
    "location": "ТЦ КАШИРСКАЯ ПЛАЗА",
    "registrationNumber": "0147-77",
    "state": "аттракцион зарегистрирован",
    "locationType": "торгово-развлекательный комплекс",
    "global_id": "1060227345",
    "geodata_center": "",
    "geoarea": ""
  },
  {
    "name": "АТТРАКЦИОН МОРСКАЯ РАКУШКА/SEASHELL SLIDE, MT-SXS0033",
    "photo": "745924b4-c607-43b1-841f-52adf47b3ca0",
    "admArea": "Южный административный округ",
    "district": "район Нагатинский Затон",
    "location": "ТЕМАТИЧЕСКИЙ ПАРК РАЗВЛЕЧЕНИЙ ОСТРОВ МЕЧТЫ",
    "registrationNumber": "2484-77",
    "state": "аттракцион зарегистрирован",
    "locationType": "торгово-развлекательный комплекс",
    "global_id": "2591918626",
    "geodata_center": "",
    "geoarea": ""
  },
  {
    "name": "АТТРАКЦИОН СЛОН / ELEPHANT SLIDE, MT-SXS0040",
    "photo": "912faeb5-ad6d-44ce-90fc-36ed489f97b8",
    "admArea": "Южный административный округ",
    "district": "район Нагатинский Затон",
    "location": "ТЕМАТИЧЕСКИЙ ПАРК РАЗВЛЕЧЕНИЙ ОСТРОВ МЕЧТЫ",
    "registrationNumber": "2485-77",
    "state": "аттракцион зарегистрирован",
    "locationType": "торгово-развлекательный комплекс",
    "global_id": "2591918627",
    "geodata_center": "",
    "geoarea": ""
  },
  {
    "name": "«GARGAMELS TOWER DROP-TWIST TOWER (БАШНЯ ПАДЕНИЯ 8 М)»",
    "photo": "d7964051-e1ec-4d67-a9a0-70e39df940ba",
    "admArea": "Южный административный округ",
    "district": "район Нагатинский Затон",
    "location": "ТЕМАТИЧЕСКИЙ ПАРК РАЗВЛЕЧЕНИЙ ОСТРОВ МЕЧТЫ",
    "registrationNumber": "0297-77",
    "state": "аттракцион зарегистрирован",
    "locationType": "торгово-развлекательный комплекс",
    "global_id": "2386835259",
    "geodata_center": "",
    "geoarea": ""
  },
  {
    "name": "«ВЕРЕВОЧНАЯ СЕМЕЙНАЯ БАШНЯ» («ROPE FAMILY TOWER»)",
    "photo": "e8b902f4-5aed-4e75-b128-84534eb839b5",
    "admArea": "Южный административный округ",
    "district": "район Нагатинский Затон",
    "location": "ТЕМАТИЧЕСКИЙ ПАРК РАЗВЛЕЧЕНИЙ ОСТРОВ МЕЧТЫ",
    "registrationNumber": "0283-77",
    "state": "аттракцион зарегистрирован",
    "locationType": "торгово-развлекательный комплекс",
    "global_id": "2386772633",
    "geodata_center": "",
    "geoarea": ""
  },
  {
    "name": "«TOP SPIN SUSPENDED» («ХРАМ ОГНЯ»)",
    "photo": "6909af76-67ba-4edc-994e-64dc7e0650ac",
    "admArea": "Южный административный округ",
    "district": "район Нагатинский Затон",
    "location": "ТЕМАТИЧЕСКИЙ ПАРК РАЗВЛЕЧЕНИЙ ОСТРОВ МЕЧТЫ",
    "registrationNumber": "0284-77",
    "state": "аттракцион зарегистрирован",
    "locationType": "торгово-развлекательный комплекс",
    "global_id": "2386772634",
    "geodata_center": "",
    "geoarea": ""
  },
  {
    "name": "ES V5.00.0000.00 EXO-JET 5.0",
    "photo": "a5ecd7c2-6594-4ec7-8225-eed5ac87459a",
    "admArea": "Южный административный округ",
    "district": "район Нагатинский Затон",
    "location": "ТЕМАТИЧЕСКИЙ ПАРК РАЗВЛЕЧЕНИЙ ОСТРОВ МЕЧТЫ",
    "registrationNumber": "2417-77",
    "state": "аттракцион зарегистрирован",
    "locationType": "торгово-развлекательный комплекс",
    "global_id": "2389720290",
    "geodata_center": "",
    "geoarea": ""
  },
  {
    "name": "АТТРАКЦИОН МОРЕПЛАВАТЕЛИ/SAILING SERIES. MT-SL-0069",
    "photo": "f021b678-ddac-4334-8854-f6f699d90f5a",
    "admArea": "Южный административный округ",
    "district": "район Нагатинский Затон",
    "location": "ТЕМАТИЧЕСКИЙ ПАРК РАЗВЛЕЧЕНИЙ ОСТРОВ МЕЧТЫ",
    "registrationNumber": "2487-77",
    "state": "аттракцион зарегистрирован",
    "locationType": "торгово-развлекательный комплекс",
    "global_id": "2591918629",
    "geodata_center": "",
    "geoarea": ""
  },
  {
    "name": "ВОДНАЯ ИГРОВАЯ ПЛОЩАДКА/WATER PLAYHOUSE. MSW401",
    "photo": "9e218434-14a0-448c-a541-caf27e15b2e1",
    "admArea": "Южный административный округ",
    "district": "район Нагатинский Затон",
    "location": "ТЕМАТИЧЕСКИЙ ПАРК РАЗВЛЕЧЕНИЙ ОСТРОВ МЕЧТЫ",
    "registrationNumber": "2486-77",
    "state": "аттракцион зарегистрирован",
    "locationType": "торгово-развлекательный комплекс",
    "global_id": "2591918630",
    "geodata_center": "",
    "geoarea": ""
  },
  {
    "name": "LSM DARK COASTER",
    "photo": "9c12a212-dfda-4f83-919d-97314eb75815",
    "admArea": "Южный административный округ",
    "district": "район Нагатинский Затон",
    "location": "ТЕМАТИЧЕСКИЙ ПАРК РАЗВЛЕЧЕНИЙ ОСТРОВ МЕЧТЫ",
    "registrationNumber": "0113-77",
    "state": "аттракцион зарегистрирован",
    "locationType": "торгово-развлекательный комплекс",
    "global_id": "1060227344",
    "geodata_center": "",
    "geoarea": ""
  },
  {
    "name": "5D КИНОТЕАТР",
    "photo": "8ebe283d-2f21-4adc-bc0c-5a336793dce5",
    "admArea": "Южный административный округ",
    "district": "район Чертаново Южное",
    "location": "ТЦ ПРАГА",
    "registrationNumber": "2450-77",
    "state": "аттракцион зарегистрирован",
    "locationType": "торгово-развлекательный комплекс",
    "global_id": "2580847287",
    "geodata_center": "",
    "geoarea": ""
  },
  {
    "name": "АВИАСИМУЛЯТОР АИРБАС А320",
    "photo": "c82817b3-a12d-4fa3-9398-4612b9f68998",
    "admArea": "Южный административный округ",
    "district": "Даниловский район",
    "location": "ТРЦ «РИВЬЕРА»",
    "registrationNumber": "0211-77",
    "state": "аттракцион зарегистрирован",
    "locationType": "торгово-развлекательный комплекс",
    "global_id": "1060204978",
    "geodata_center": "",
    "geoarea": ""
  },
  {
    "name": "АВИАСИМУЛЯТОР БОИНГ 737",
    "photo": "bda7f7da-e5ba-466e-a78a-5a5e8aacbac7",
    "admArea": "Южный административный округ",
    "district": "Даниловский район",
    "location": "ТРЦ «РИВЬЕРА»",
    "registrationNumber": "0210-77",
    "state": "аттракцион зарегистрирован",
    "locationType": "торгово-развлекательный комплекс",
    "global_id": "1060204973",
    "geodata_center": "",
    "geoarea": ""
  },
  {
    "name": "АВИАСИМУЛЯТОР EXTRINO 737",
    "photo": "1c24a4e5-b5f5-4fcc-a3f1-df8a8e3c8b03",
    "admArea": "Южный административный округ",
    "district": "район Чертаново Центральное",
    "location": "ТРЦ «COLUMBUS»",
    "registrationNumber": "0241-77",
    "state": "аттракцион зарегистрирован",
    "locationType": "торгово-развлекательный комплекс",
    "global_id": "2386835249",
    "geodata_center": "",
    "geoarea": ""
  },
  {
    "name": "КАРТОДРОМ BLACKSTARKARTING",
    "photo": "9ec8cb12-1852-4ba8-a2dd-e17b0243819a",
    "admArea": "Южный административный округ",
    "district": "Даниловский район",
    "location": "ТРЦ «РИВЬЕРА»",
    "registrationNumber": "2425-77",
    "state": "аттракцион зарегистрирован",
    "locationType": "торгово-развлекательный комплекс",
    "global_id": "2389451290",
    "geodata_center": "",
    "geoarea": ""
  },
  {
    "name": "MEGA DISKO 40",
    "photo": "7874a2b0-cd42-4242-8c58-f6b035850453",
    "admArea": "Южный административный округ",
    "district": "район Нагатинский Затон",
    "location": "ТЕМАТИЧЕСКИЙ ПАРК РАЗВЛЕЧЕНИЙ ОСТРОВ МЕЧТЫ",
    "registrationNumber": "0281-77",
    "state": "аттракцион зарегистрирован",
    "locationType": "торгово-развлекательный комплекс",
    "global_id": "2386835253",
    "geodata_center": "",
    "geoarea": ""
  },
  {
    "name": "«POWER MOUSE 30X20 METERS» («СЕМЕЙНАЯ КАТАЛЬНАЯ ГОРА»)",
    "photo": "cb59e242-c9e6-4ebd-a4bb-d7a3c23009cc",
    "admArea": "Южный административный округ",
    "district": "район Нагатинский Затон",
    "location": "ТЕМАТИЧЕСКИЙ ПАРК РАЗВЛЕЧЕНИЙ ОСТРОВ МЕЧТЫ",
    "registrationNumber": "0286-77",
    "state": "аттракцион зарегистрирован",
    "locationType": "торгово-развлекательный комплекс",
    "global_id": "2386835255",
    "geodata_center": "",
    "geoarea": ""
  },
  {
    "name": "5D КИНОТЕАТР",
    "photo": "411cad70-35f9-40c6-9717-90d6dc5867c5",
    "admArea": "Южный административный округ",
    "district": "район Нагатино-Садовники",
    "location": "ТРЦ «НОРА»",
    "registrationNumber": "0170-77",
    "state": "аттракцион зарегистрирован",
    "locationType": "торгово-развлекательный комплекс",
    "global_id": "1060227346",
    "geodata_center": "",
    "geoarea": ""
  },
  {
    "name": "BLACK HOLE ENCLOSED SLIDE GAT",
    "photo": "9683e16a-2367-4092-93c9-b365e7186980",
    "admArea": "Юго-Западный административный округ",
    "district": "район Ясенево",
    "location": "АКВАПАРК МОРИОН",
    "registrationNumber": "2353-77",
    "state": "аттракцион зарегистрирован",
    "locationType": "торгово-развлекательный комплекс",
    "global_id": "2386886340",
    "geodata_center": "",
    "geoarea": ""
  },
  {
    "name": "SLIDE SPACE BOWL AT",
    "photo": "b206c917-ba30-4429-bcbb-14d71d7630c4",
    "admArea": "Юго-Западный административный округ",
    "district": "район Ясенево",
    "location": "АКВАПАРК МОРИОН",
    "registrationNumber": "2352-77",
    "state": "аттракцион зарегистрирован",
    "locationType": "торгово-развлекательный комплекс",
    "global_id": "2386886337",
    "geodata_center": "",
    "geoarea": ""
  },
  {
    "name": "INNER TUBE ENCLOSED SLIDE GAT",
    "photo": "0f4138f0-052c-488a-a20c-6f32f8b4b11f",
    "admArea": "Юго-Западный административный округ",
    "district": "район Ясенево",
    "location": "АКВАПАРК МОРИОН",
    "registrationNumber": "2351-77",
    "state": "аттракцион зарегистрирован",
    "locationType": "торгово-развлекательный комплекс",
    "global_id": "2386886333",
    "geodata_center": "",
    "geoarea": ""
  },
  {
    "name": "5D КИНОТЕАТР",
    "photo": "279b8a43-2b7b-44cf-8c24-8000c4633949",
    "admArea": "Юго-Западный административный округ",
    "district": "Гагаринский район",
    "location": "ТЦ «ТРИУМФАЛЬНЫЙ»",
    "registrationNumber": "0171-77",
    "state": "аттракцион зарегистрирован",
    "locationType": "торгово-развлекательный комплекс",
    "global_id": "1060227347",
    "geodata_center": "",
    "geoarea": ""
  },
  {
    "name": "СКОРОСТНАЯ ДОРОГА С МИНИ-АВТОМОБИЛЯМИ МОДЕЛЕЙ STORM PROKART EFD, STORM PROKART EFD DUO, JUNIOR MY17",
    "photo": "41aa3f08-1cad-46eb-bece-54ab852377ea",
    "admArea": "Юго-Западный административный округ",
    "district": "район Котловка",
    "location": "ТЦ «КАПИТОЛИЙ СЕВАСТОПОЛЬСКИЙ»",
    "registrationNumber": "0272-77",
    "state": "аттракцион зарегистрирован",
    "locationType": "торгово-развлекательный комплекс",
    "global_id": "2386772630",
    "geodata_center": "",
    "geoarea": ""
  },
  {
    "name": "BODY SLIDE ENCLOSED SLIDE AT",
    "photo": "69187451-e3a4-4476-8c8b-87cad0fcabbb",
    "admArea": "Юго-Западный административный округ",
    "district": "район Ясенево",
    "location": "АКВАПАРК МОРИОН",
    "registrationNumber": "2378-77",
    "state": "аттракцион зарегистрирован",
    "locationType": "торгово-развлекательный комплекс",
    "global_id": "2386975256",
    "geodata_center": "",
    "geoarea": ""
  },
  {
    "name": "МИНИ КРЫЛО",
    "photo": "58039bb6-a147-48a2-86e0-c8cf57f8c4a1",
    "admArea": "Юго-Западный административный округ",
    "district": "район Ясенево",
    "location": "АКВАПАРК МОРИОН",
    "registrationNumber": "2379-77",
    "state": "аттракцион зарегистрирован",
    "locationType": "торгово-развлекательный комплекс",
    "global_id": "2386975257",
    "geodata_center": "",
    "geoarea": ""
  },
  {
    "name": "BODY SLIDE RAMP SLIDE RM",
    "photo": "b0786e50-2ef5-4571-a905-dffa79ef9db9",
    "admArea": "Юго-Западный административный округ",
    "district": "район Ясенево",
    "location": "АКВАПАРК МОРИОН",
    "registrationNumber": "2380-77",
    "state": "аттракцион зарегистрирован",
    "locationType": "торгово-развлекательный комплекс",
    "global_id": "2386975258",
    "geodata_center": "",
    "geoarea": ""
  },
  {
    "name": "ГИДРОТРУБА 1",
    "photo": "1a2bafef-3337-4df1-8f06-f5d538d378fc",
    "admArea": "Юго-Западный административный округ",
    "district": "район Ясенево",
    "location": "АКВАПАРК МОРИОН",
    "registrationNumber": "2381-77",
    "state": "аттракцион зарегистрирован",
    "locationType": "торгово-развлекательный комплекс",
    "global_id": "2386975259",
    "geodata_center": "",
    "geoarea": ""
  },
  {
    "name": "ТОБОГГАН",
    "photo": "89a3b9cc-383e-4dff-b08e-6bdc7e8c7caf",
    "admArea": "Юго-Западный административный округ",
    "district": "район Ясенево",
    "location": "АКВАПАРК МОРИОН",
    "registrationNumber": "2382-77",
    "state": "аттракцион зарегистрирован",
    "locationType": "торгово-развлекательный комплекс",
    "global_id": "2386975260",
    "geodata_center": "",
    "geoarea": ""
  },
  {
    "name": "ДЕТСКИЙ ГОРОДОК АР150 ТВ CUSTOM PIRATE BOAT THEME AQUA SPRAY TOYS",
    "photo": "78f92eb4-1941-4f83-bc8b-e7cde235fafc",
    "admArea": "Юго-Западный административный округ",
    "district": "район Ясенево",
    "location": "АКВАПАРК МОРИОН",
    "registrationNumber": "2383-77",
    "state": "аттракцион зарегистрирован",
    "locationType": "торгово-развлекательный комплекс",
    "global_id": "2386975261",
    "geodata_center": "",
    "geoarea": ""
  },
  {
    "name": "ЭКСТРИМ ТРУБА",
    "photo": "f73de8be-34f1-4baa-9a4c-55ba600219dd",
    "admArea": "Юго-Западный административный округ",
    "district": "район Ясенево",
    "location": "АКВАПАРК МОРИОН",
    "registrationNumber": "2384-77",
    "state": "аттракцион зарегистрирован",
    "locationType": "торгово-развлекательный комплекс",
    "global_id": "2386975262",
    "geodata_center": "",
    "geoarea": ""
  },
  {
    "name": "ГИДРОТРУБА 2",
    "photo": "d2d14c6b-9d4a-4747-a0c3-fc5bec9d1c83",
    "admArea": "Юго-Западный административный округ",
    "district": "район Ясенево",
    "location": "АКВАПАРК МОРИОН",
    "registrationNumber": "2385-77",
    "state": "аттракцион зарегистрирован",
    "locationType": "торгово-развлекательный комплекс",
    "global_id": "2386975263",
    "geodata_center": "",
    "geoarea": ""
  },
  {
    "name": "ДИНАМИЧЕСКАЯ ПЛАТФОРМА EP 4VR ST",
    "photo": "9c2a9b4e-7596-4f7d-a4da-d86d57c821e6",
    "admArea": "Юго-Восточный административный округ",
    "district": "район Марьино",
    "location": "ТРК «MARI»",
    "registrationNumber": "2333-77",
    "state": "аттракцион зарегистрирован",
    "locationType": "торгово-развлекательный комплекс",
    "global_id": "2386886293",
    "geodata_center": "",
    "geoarea": ""
  },
  {
    "name": "МОУШН СФЕРА",
    "photo": "6271a285-d5af-446d-aa40-6da5d236b55f",
    "admArea": "Юго-Восточный административный округ",
    "district": "район Марьино",
    "location": "ТРК «MARI»",
    "registrationNumber": "0296-77",
    "state": "аттракцион зарегистрирован",
    "locationType": "торгово-развлекательный комплекс",
    "global_id": "2386835260",
    "geodata_center": "",
    "geoarea": ""
  },
  {
    "name": "ДИНАМИЧЕСКАЯ ПЛАТФОРМА 3Д5",
    "photo": "f7ad3254-2ba2-4c01-85dd-23a832c5dd98",
    "admArea": "Юго-Восточный административный округ",
    "district": "Южнопортовый район",
    "location": "ТРЦ «МОЗАИКА»",
    "registrationNumber": "0201-77",
    "state": "аттракцион зарегистрирован",
    "locationType": "торгово-развлекательный комплекс",
    "global_id": "1060204967",
    "geodata_center": "",
    "geoarea": ""
  },
  {
    "name": "ГОРКА ВОДНАЯ БАРАКУДА",
    "photo": "609fd767-74ce-47da-b4e5-a76c58d83abc",
    "admArea": "Юго-Восточный административный округ",
    "district": "район Марьино",
    "location": "АКВАПАРК ФЭНТАЗИ",
    "registrationNumber": "2421-77",
    "state": "аттракцион зарегистрирован",
    "locationType": "торгово-развлекательный комплекс",
    "global_id": "2387014181",
    "geodata_center": "",
    "geoarea": ""
  },
  {
    "name": "СКОРОСТНАЯ ДОРОГА С МИНИ-АВТОМОБИЛЯМИ МОДЕЛЕЙ SODI RT8, SODI LR5, 2Х МЕСТНЫЙ ДУЭТ, DINO RENTAL, МИКС КАРТ СПОРТ",
    "photo": "809f7bbb-5f39-4a12-8a86-2c8016ad4448",
    "admArea": "Юго-Восточный административный округ",
    "district": "Южнопортовый район",
    "location": "MIKS KARTING",
    "registrationNumber": "2449-77",
    "state": "аттракцион зарегистрирован",
    "locationType": "торгово-развлекательный комплекс",
    "global_id": "2578088510",
    "geodata_center": "",
    "geoarea": ""
  },
  {
    "name": "КАРТИНГ ЦТВС МОСКВА",
    "photo": "c5aa961b-3edc-47cc-b1c1-fbdbf807ee19",
    "admArea": "Юго-Восточный административный округ",
    "district": "район Печатники",
    "location": "ЦЕНТР ТЕХНИЧЕСКИХ ВИДОВ СПОРТА МОСКВА",
    "registrationNumber": "2444-77",
    "state": "аттракцион зарегистрирован",
    "locationType": "торгово-развлекательный комплекс",
    "global_id": "2507690399",
    "geodata_center": "",
    "geoarea": ""
  },
  {
    "name": "ВИРТУАЛЬНЫЙ СИМУЛЯТОР F-3",
    "photo": "d820d39f-b8a3-4c95-aed1-8d5d1f85a5d1",
    "admArea": "Юго-Восточный административный округ",
    "district": "район Лефортово",
    "location": "ТРЦ «ГОРОД»",
    "registrationNumber": "2436-77",
    "state": "аттракцион зарегистрирован",
    "locationType": "торгово-развлекательный комплекс",
    "global_id": "2426355818",
    "geodata_center": "",
    "geoarea": ""
  },
  {
    "name": "ГОРКА ВОДНАЯ КАМИКАДЗЕ",
    "photo": "c3d13a83-8768-48f6-a48d-6eb2e282934e",
    "admArea": "Юго-Восточный административный округ",
    "district": "район Марьино",
    "location": "АКВАПАРК ФЭНТАЗИ",
    "registrationNumber": "2423-77",
    "state": "аттракцион зарегистрирован",
    "locationType": "торгово-развлекательный комплекс",
    "global_id": "2387014189",
    "geodata_center": "",
    "geoarea": ""
  },
  {
    "name": "ГОРКА ВОДНАЯ ТАБОГАН",
    "photo": "8d32d8b4-ad74-4ff1-81e7-29fa5efeb55e",
    "admArea": "Юго-Восточный административный округ",
    "district": "район Марьино",
    "location": "АКВАПАРК ФЭНТАЗИ",
    "registrationNumber": "2422-77",
    "state": "аттракцион зарегистрирован",
    "locationType": "торгово-развлекательный комплекс",
    "global_id": "2387014186",
    "geodata_center": "",
    "geoarea": ""
  },
  {
    "name": "ГОРКА ВОДНАЯ ФЕНТАЗИ",
    "photo": "46153a2d-f4e9-4ce0-862d-b8741c51b093",
    "admArea": "Юго-Восточный административный округ",
    "district": "район Марьино",
    "location": "АКВАПАРК ФЭНТАЗИ",
    "registrationNumber": "2420-77",
    "state": "аттракцион зарегистрирован",
    "locationType": "торгово-развлекательный комплекс",
    "global_id": "2387014175",
    "geodata_center": "",
    "geoarea": ""
  },
  {
    "name": "КАРТИНГ «E-GO KARTING»",
    "photo": "74aef313-3654-43f9-b550-4bf027cc3b97",
    "admArea": "Юго-Восточный административный округ",
    "district": "район Лефортово",
    "location": "ТРЦ СПОРТЕХ",
    "registrationNumber": "2413-77",
    "state": "аттракцион зарегистрирован",
    "locationType": "торгово-развлекательный комплекс",
    "global_id": "2387014166",
    "geodata_center": "",
    "geoarea": ""
  },
  {
    "name": "«МАСТЕР БЛАСТЕР/ КОНСТРИКТОР/ СУПЕР БОУЛ АА»",
    "photo": "5566137f-5845-4d25-b339-8b2409fbe507",
    "admArea": "Центральный административный округ",
    "district": "район Хамовники",
    "location": "АКВАКОМПЛЕКС ЛУЖНИКИ",
    "registrationNumber": "2364-77",
    "state": "аттракцион зарегистрирован",
    "locationType": "торгово-развлекательный комплекс",
    "global_id": "2386975249",
    "geodata_center": "",
    "geoarea": ""
  },
  {
    "name": "АВИАСИМУЛЯТОР EXTRINO 737",
    "photo": "f41aa6b2-0317-450f-a8b0-4b90b13d585e",
    "admArea": "Центральный административный округ",
    "district": "Пресненский район",
    "location": "ТРЦ «АФИМОЛЛ СИТИ»",
    "registrationNumber": "0186-77",
    "state": "аттракцион зарегистрирован",
    "locationType": "торгово-развлекательный комплекс",
    "global_id": "1060227350",
    "geodata_center": "",
    "geoarea": ""
  },
  {
    "name": "6D OF 3 SCREEN RACING",
    "photo": "38ce588a-f96f-44a3-8aaf-978dcf870d2d",
    "admArea": "Центральный административный округ",
    "district": "Мещанский район",
    "location": "ТЦ «ЦЕНТРАЛЬНЫЙ ДЕТСКИЙ МАГАЗИН»",
    "registrationNumber": "0228-77",
    "state": "регистрация аттракциона приостановлена",
    "locationType": "торгово-развлекательный комплекс",
    "global_id": "2386772616",
    "geodata_center": "",
    "geoarea": ""
  },
  {
    "name": "360 KING KONG VR",
    "photo": "7d626802-305a-4875-aead-15e8abef83fc",
    "admArea": "Центральный административный округ",
    "district": "Мещанский район",
    "location": "ТЦ «ЦЕНТРАЛЬНЫЙ ДЕТСКИЙ МАГАЗИН»",
    "registrationNumber": "0229-77",
    "state": "регистрация аттракциона приостановлена",
    "locationType": "торгово-развлекательный комплекс",
    "global_id": "2386772617",
    "geodata_center": "",
    "geoarea": ""
  },
  {
    "name": "АВИАСИМУЛЯТОР EXTRINO 320",
    "photo": "7fa38828-2e8c-4fb4-93d5-b9343314c267",
    "admArea": "Центральный административный округ",
    "district": "Пресненский район",
    "location": "ТРЦ «АФИМОЛЛ СИТИ»",
    "registrationNumber": "0243-77",
    "state": "аттракцион зарегистрирован",
    "locationType": "торгово-развлекательный комплекс",
    "global_id": "2386835251",
    "geodata_center": "",
    "geoarea": ""
  },
  {
    "name": "СКОРОСТНАЯ ДОРОГА С МИНИ-АВТОМОБИЛЯМИ «ЛЕМАН СИТИ»",
    "photo": "c369317d-d236-4290-84a0-88e1ed7fbf34",
    "admArea": "Центральный административный округ",
    "district": "Пресненский район",
    "location": "ЛЕМАН СИТИ",
    "registrationNumber": "2404-77",
    "state": "аттракцион зарегистрирован",
    "locationType": "торгово-развлекательный комплекс",
    "global_id": "2387014156",
    "geodata_center": "",
    "geoarea": ""
  },
  {
    "name": "МУЛЬТИ СЛАЙД (MULTI SLIDE)",
    "photo": "62e4f8a0-eec5-42a1-a450-98a39a9c8c54",
    "admArea": "Центральный административный округ",
    "district": "Тверской район",
    "location": "АКВАПАРК КАРИБИЯ",
    "registrationNumber": "2369-77",
    "state": "аттракцион зарегистрирован",
    "locationType": "торгово-развлекательный комплекс",
    "global_id": "2386975252",
    "geodata_center": "",
    "geoarea": ""
  },
  {
    "name": "ТУННЕЛЬ ФРИ ФОЛЛ (TUNNEL FREE FALL)",
    "photo": "c1f0e302-9046-4f87-b60f-51fed50d65d1",
    "admArea": "Центральный административный округ",
    "district": "Тверской район",
    "location": "АКВАПАРК КАРИБИЯ",
    "registrationNumber": "2368-77",
    "state": "аттракцион зарегистрирован",
    "locationType": "торгово-развлекательный комплекс",
    "global_id": "2386975251",
    "geodata_center": "",
    "geoarea": ""
  },
  {
    "name": "ВОДНАЯ ГОРКА BODY SLIDE",
    "photo": "839f66b0-e740-4024-8fea-f48e618dcb40",
    "admArea": "Центральный административный округ",
    "district": "Тверской район",
    "location": "АКВАПАРК КАРИБИЯ",
    "registrationNumber": "2347-77",
    "state": "аттракцион зарегистрирован",
    "locationType": "торгово-развлекательный комплекс",
    "global_id": "2386886327",
    "geodata_center": "",
    "geoarea": ""
  },
  {
    "name": "«ВОДНАЯ ТРУБА (AQUATUBE SLIDE) AH»",
    "photo": "cca788f6-379f-4c79-9f92-d798007d8699",
    "admArea": "Центральный административный округ",
    "district": "район Хамовники",
    "location": "АКВАКОМПЛЕКС ЛУЖНИКИ",
    "registrationNumber": "2363-77",
    "state": "аттракцион зарегистрирован",
    "locationType": "торгово-развлекательный комплекс",
    "global_id": "2386975248",
    "geodata_center": "",
    "geoarea": ""
  },
  {
    "name": "«АКВАТРУБА РА»",
    "photo": "497eebe7-a0c2-408a-9836-6fbe07453081",
    "admArea": "Центральный административный округ",
    "district": "район Хамовники",
    "location": "АКВАКОМПЛЕКС ЛУЖНИКИ",
    "registrationNumber": "2359-77",
    "state": "аттракцион зарегистрирован",
    "locationType": "торгово-развлекательный комплекс",
    "global_id": "2386975244",
    "geodata_center": "",
    "geoarea": ""
  },
  {
    "name": "ВОДНАЯ ГОРКА BLACK HOLE",
    "photo": "7ffb458b-8999-4488-9962-82173242ddde",
    "admArea": "Центральный административный округ",
    "district": "Тверской район",
    "location": "АКВАПАРК КАРИБИЯ",
    "registrationNumber": "2348-77",
    "state": "аттракцион зарегистрирован",
    "locationType": "торгово-развлекательный комплекс",
    "global_id": "2386886330",
    "geodata_center": "",
    "geoarea": ""
  },
  {
    "name": "«ВОДНАЯ ТРУБА (AQUATUBE SLIDE) AB»",
    "photo": "843239df-68f9-4353-97a5-f775b7f43ac1",
    "admArea": "Центральный административный округ",
    "district": "район Хамовники",
    "location": "АКВАКОМПЛЕКС ЛУЖНИКИ",
    "registrationNumber": "2354-77",
    "state": "аттракцион зарегистрирован",
    "locationType": "торгово-развлекательный комплекс",
    "global_id": "2386886344",
    "geodata_center": "",
    "geoarea": ""
  },
  {
    "name": "ЗИМНЯЯ ГОРКА KIDWILL",
    "photo": "da8600d6-3e49-4783-98cf-60edc78b8058",
    "admArea": "Центральный административный округ",
    "district": "Басманный район",
    "location": "ТЕРРИТОРИЯ ЦЕНТРА СОВРЕМЕННОГО ИСКУССТВА ВИНЗАВОД",
    "registrationNumber": "2340-77",
    "state": "регистрация аттракциона приостановлена",
    "locationType": "торгово-развлекательный комплекс",
    "global_id": "2386886312",
    "geodata_center": "",
    "geoarea": ""
  },
  {
    "name": "«АКВАСФЕРА (AQUASPHERE) AD»",
    "photo": "ed4102d8-3426-484c-9176-c1394adade58",
    "admArea": "Центральный административный округ",
    "district": "район Хамовники",
    "location": "АКВАКОМПЛЕКС ЛУЖНИКИ",
    "registrationNumber": "2355-77",
    "state": "аттракцион зарегистрирован",
    "locationType": "торгово-развлекательный комплекс",
    "global_id": "2386975240",
    "geodata_center": "",
    "geoarea": ""
  },
  {
    "name": "«СЛАЙДБОУРДИНГ (SLIDEBOARDING) АС»",
    "photo": "eb689236-21eb-45c4-8e3d-ffee88d6a2e3",
    "admArea": "Центральный административный округ",
    "district": "район Хамовники",
    "location": "АКВАКОМПЛЕКС ЛУЖНИКИ",
    "registrationNumber": "2362-77",
    "state": "аттракцион зарегистрирован",
    "locationType": "торгово-развлекательный комплекс",
    "global_id": "2386975247",
    "geodata_center": "",
    "geoarea": ""
  },
  {
    "name": "«ВОДНАЯ ТРУБА (AQUATUBE SLIDE) AG»",
    "photo": "2e0d6748-d357-445e-ae7f-003d8ca4d215",
    "admArea": "Центральный административный округ",
    "district": "район Хамовники",
    "location": "АКВАКОМПЛЕКС ЛУЖНИКИ",
    "registrationNumber": "2357-77",
    "state": "аттракцион зарегистрирован",
    "locationType": "торгово-развлекательный комплекс",
    "global_id": "2386975242",
    "geodata_center": "",
    "geoarea": ""
  },
  {
    "name": "«ВОДНАЯ ТРУБА (AQUATUBE SLIDE) AJ»",
    "photo": "b45a1f6f-0059-471e-86ab-b3c3f3ec900a",
    "admArea": "Центральный административный округ",
    "district": "район Хамовники",
    "location": "АКВАКОМПЛЕКС ЛУЖНИКИ",
    "registrationNumber": "2358-77",
    "state": "аттракцион зарегистрирован",
    "locationType": "торгово-развлекательный комплекс",
    "global_id": "2386975243",
    "geodata_center": "",
    "geoarea": ""
  },
  {
    "name": "КАРУСЕЛЬ",
    "photo": "7a7ae3de-2a9f-401f-a6b1-58e9a40dcfa6",
    "admArea": "Центральный административный округ",
    "district": "Тверской район",
    "location": "ГОСТИНЫЙ ДВОР",
    "registrationNumber": "2334-77",
    "state": "аттракцион зарегистрирован",
    "locationType": "торгово-развлекательный комплекс",
    "global_id": "2386886296",
    "geodata_center": "",
    "geoarea": ""
  },
  {
    "name": "«ПУЛСАЙДЕР (POOLSIDER) AE»",
    "photo": "24892a6b-2bf3-455d-a5fb-e88315d23a6b",
    "admArea": "Центральный административный округ",
    "district": "район Хамовники",
    "location": "АКВАКОМПЛЕКС ЛУЖНИКИ",
    "registrationNumber": "2356-77",
    "state": "аттракцион зарегистрирован",
    "locationType": "торгово-развлекательный комплекс",
    "global_id": "2386975241",
    "geodata_center": "",
    "geoarea": ""
  },
  {
    "name": "«МЕРТВАЯ ПЕТЛЯ (AQUALOOP) AI»",
    "photo": "13366941-4dc9-447f-9fbe-36226ec73967",
    "admArea": "Центральный административный округ",
    "district": "район Хамовники",
    "location": "АКВАКОМПЛЕКС ЛУЖНИКИ",
    "registrationNumber": "2361-77",
    "state": "аттракцион зарегистрирован",
    "locationType": "торгово-развлекательный комплекс",
    "global_id": "2386975246",
    "geodata_center": "",
    "geoarea": ""
  },
  {
    "name": "«МИНИ МУЛЬТИ РB»",
    "photo": "ed75a51b-df17-4ca6-9405-483233acf27c",
    "admArea": "Центральный административный округ",
    "district": "район Хамовники",
    "location": "АКВАКОМПЛЕКС ЛУЖНИКИ",
    "registrationNumber": "2360-77",
    "state": "аттракцион зарегистрирован",
    "locationType": "торгово-развлекательный комплекс",
    "global_id": "2386975245",
    "geodata_center": "",
    "geoarea": ""
  },
  {
    "name": "ПОДВОДНЫЙ МИР - 8",
    "photo": "eab45c9b-382f-4b7f-96d1-566a1a740f0e",
    "admArea": "Троицкий административный округ",
    "district": "поселение Троицк",
    "location": "ТЦ АКАДЕМИЧЕСКИЙ",
    "registrationNumber": "2388-77",
    "state": "аттракцион зарегистрирован",
    "locationType": "торгово-развлекательный комплекс",
    "global_id": "2389677626",
    "geodata_center": "",
    "geoarea": ""
  },
  {
    "name": "БАТУТ НАДУВНОЙ БС-179",
    "photo": "8e9336a7-e181-4b52-a6da-7d65633bfcf0",
    "admArea": "Северо-Западный административный округ",
    "district": "район Строгино",
    "location": "ОК РУБЛЕВО АХУ ОАО РЖД",
    "registrationNumber": "2506-77",
    "state": "аттракцион зарегистрирован",
    "locationType": "торгово-развлекательный комплекс",
    "global_id": "2608034406",
    "geodata_center": "",
    "geoarea": ""
  },
  {
    "name": "МИНИ-ПОЕЗД",
    "photo": "93e7d258-7e8c-4a4d-bb72-b30021d2ce79",
    "admArea": "Северо-Западный административный округ",
    "district": "район Строгино",
    "location": "ОК РУБЛЕВО АХУ ОАО РЖД",
    "registrationNumber": "2505-77",
    "state": "аттракцион зарегистрирован",
    "locationType": "торгово-развлекательный комплекс",
    "global_id": "2608034397",
    "geodata_center": "",
    "geoarea": ""
  },
  {
    "name": "МИНИ-ДЖЕТ",
    "photo": "db74c533-efd6-4866-8f31-3a52fe82ecca",
    "admArea": "Северо-Западный административный округ",
    "district": "район Строгино",
    "location": "ОК РУБЛЕВО АХУ ОАО РЖД",
    "registrationNumber": "2504-77",
    "state": "аттракцион зарегистрирован",
    "locationType": "торгово-развлекательный комплекс",
    "global_id": "2608034402",
    "geodata_center": "",
    "geoarea": ""
  },
  {
    "name": "КАРТИНГ",
    "photo": "1feed964-21b4-4172-8f79-4ff141996b48",
    "admArea": "Северо-Восточный административный округ",
    "district": "район Северное Медведково",
    "location": "X-TI КАРТИНГ",
    "registrationNumber": "2412-77",
    "state": "аттракцион зарегистрирован",
    "locationType": "торгово-развлекательный комплекс",
    "global_id": "2387014164",
    "geodata_center": "",
    "geoarea": ""
  },
  {
    "name": "ИНТЕРАКТИВНЫЙ СИМУЛЯТОР КОСМИЧЕСКОГО КОРАБЛЯ ИРМ-Т1/S",
    "photo": "c2cff552-3013-4300-a52f-20a61fd3660a",
    "admArea": "Северо-Восточный административный округ",
    "district": "Останкинский район",
    "location": "МУЗЕЙ КОСМОНАВТИКИ",
    "registrationNumber": "2488-77",
    "state": "аттракцион зарегистрирован",
    "locationType": "торгово-развлекательный комплекс",
    "global_id": "2592276885",
    "geodata_center": "",
    "geoarea": ""
  },
  {
    "name": "СТЕРЕОЗАЛ «STAR TECHNOLOGY»",
    "photo": "b4f1d7c5-d812-46f6-aecd-df2c51a66e64",
    "admArea": "Северо-Восточный административный округ",
    "district": "Бабушкинский район",
    "location": "ТРЦ «КЛЕН»",
    "registrationNumber": "2232-77",
    "state": "аттракцион зарегистрирован",
    "locationType": "торгово-развлекательный комплекс",
    "global_id": "2386835265",
    "geodata_center": "",
    "geoarea": ""
  },
  {
    "name": "АВТОБУС",
    "photo": "511514a4-41a3-42fc-ad16-db9f5d3dc252",
    "admArea": "Северный административный округ",
    "district": "Хорошёвский район",
    "location": "ТЦ «АВИАПАРК»",
    "registrationNumber": "0266-77",
    "state": "аттракцион зарегистрирован",
    "locationType": "торгово-развлекательный комплекс",
    "global_id": "2386772626",
    "geodata_center": "",
    "geoarea": ""
  },
  {
    "name": "ПОЖАРНАЯ МАШИНА",
    "photo": "4bbec290-8ffe-41c5-a818-8affd9a5c0cc",
    "admArea": "Северный административный округ",
    "district": "Хорошёвский район",
    "location": "ТЦ «АВИАПАРК»",
    "registrationNumber": "0263-77",
    "state": "аттракцион зарегистрирован",
    "locationType": "торгово-развлекательный комплекс",
    "global_id": "2386772623",
    "geodata_center": "",
    "geoarea": ""
  },
  {
    "name": "МАШИНА ИНКАССАЦИИ",
    "photo": "fa0821ef-fc36-4c07-8be4-69ebc184c4e7",
    "admArea": "Северный административный округ",
    "district": "Хорошёвский район",
    "location": "ТЦ «АВИАПАРК»",
    "registrationNumber": "0265-77",
    "state": "аттракцион зарегистрирован",
    "locationType": "торгово-развлекательный комплекс",
    "global_id": "2386772625",
    "geodata_center": "",
    "geoarea": ""
  },
  {
    "name": "СКОРАЯ ПОМОЩЬ",
    "photo": "53532302-ced4-4006-95a9-c108d57822ed",
    "admArea": "Северный административный округ",
    "district": "Хорошёвский район",
    "location": "ТЦ «АВИАПАРК»",
    "registrationNumber": "0264-77",
    "state": "аттракцион зарегистрирован",
    "locationType": "торгово-развлекательный комплекс",
    "global_id": "2386772624",
    "geodata_center": "",
    "geoarea": ""
  },
  {
    "name": "АВТОДРОМ",
    "photo": "d8a13418-9cad-43a3-bdd6-ab68a2ea3b75",
    "admArea": "Северный административный округ",
    "district": "Хорошёвский район",
    "location": "ТЦ «АВИАПАРК»",
    "registrationNumber": "0267-77",
    "state": "аттракцион зарегистрирован",
    "locationType": "торгово-развлекательный комплекс",
    "global_id": "2386772628",
    "geodata_center": "",
    "geoarea": ""
  },
  {
    "name": "MERRY GO ROUND 4MT",
    "photo": "e98956df-4409-4264-b2dc-84ae013f0c39",
    "admArea": "Северный административный округ",
    "district": "Войковский район",
    "location": "ТЦ «МЕТРОПОЛИС»",
    "registrationNumber": "0259-77",
    "state": "аттракцион зарегистрирован",
    "locationType": "торгово-развлекательный комплекс",
    "global_id": "2386835252",
    "geodata_center": "",
    "geoarea": ""
  },
  {
    "name": "НАДУВНОЙ БАТУТ ПАТРУЛЬ",
    "photo": "78e25693-3f21-45a3-9522-a0c005667b8a",
    "admArea": "Новомосковский административный округ",
    "district": "поселение Щербинка",
    "location": "ТЦ «АКВАРЕЛЬ»",
    "registrationNumber": "2401-77",
    "state": "аттракцион зарегистрирован",
    "locationType": "торгово-развлекательный комплекс",
    "global_id": "2387014153",
    "geodata_center": "",
    "geoarea": ""
  },
  {
    "name": "НАДУВНАЯ ГОРКА (6Х6,5Х4/2М)",
    "photo": "9aa9e907-bf74-4fda-adab-769e38d79228",
    "admArea": "Новомосковский административный округ",
    "district": "поселение Московский",
    "location": "ТРК «НОВОМОСКОВСКИЙ»",
    "registrationNumber": "2445-77",
    "state": "аттракцион зарегистрирован",
    "locationType": "торгово-развлекательный комплекс",
    "global_id": "2509546347",
    "geodata_center": "",
    "geoarea": ""
  },
  {
    "name": "КАРТИНГ «LIBERTY KARTING»",
    "photo": "a0db33ae-ea9b-40e2-8695-89d63a841dce",
    "admArea": "Новомосковский административный округ",
    "district": "поселение Московский",
    "location": "ТРЦ САЛАРИС",
    "registrationNumber": "2503-77",
    "state": "аттракцион зарегистрирован",
    "locationType": "торгово-развлекательный комплекс",
    "global_id": "2606660342",
    "geodata_center": "",
    "geoarea": ""
  },
  {
    "name": "ДИНАМИЧЕСКАЯ ПЛАТФОРМА 3Д5",
    "photo": "8c2ff6b0-6e9b-4c2c-9b8e-2ffb126841c3",
    "admArea": "Новомосковский административный округ",
    "district": "поселение Московский",
    "location": "ТРЦ САЛАРИС",
    "registrationNumber": "0209-77",
    "state": "аттракцион зарегистрирован",
    "locationType": "торгово-развлекательный комплекс",
    "global_id": "1060204969",
    "geodata_center": "",
    "geoarea": ""
  },
  {
    "name": "СТЕРЕОЗАЛ «STAR TECHNOLOGY»",
    "photo": "d0af8fa9-cfeb-48a3-b631-12fc21000f38",
    "admArea": "Новомосковский административный округ",
    "district": "поселение Московский",
    "location": "ТРК «НОВОМОСКОВСКИЙ»",
    "registrationNumber": "2210-77",
    "state": "аттракцион зарегистрирован",
    "locationType": "торгово-развлекательный комплекс",
    "global_id": "2386886324",
    "geodata_center": "",
    "geoarea": ""
  },
  {
    "name": "ВОДНАЯ ГОРКА «АКВАТЮБ»",
    "photo": "2f620e2b-bfb4-44aa-a93c-3b022335f25b",
    "admArea": "Западный административный округ",
    "district": "район Раменки",
    "location": "СПОРТИВНО-РАЗВЛЕКАТЕЛЬНЫЙ КОМПЛЕКС «ПРЕМЬЕР-СПОРТ»",
    "registrationNumber": "2377-77",
    "state": "аттракцион зарегистрирован",
    "locationType": "торгово-развлекательный комплекс",
    "global_id": "2386975255",
    "geodata_center": "",
    "geoarea": ""
  },
  {
    "name": "MIRAGE F3",
    "photo": "45ec93a9-e414-4c8d-a9d1-c27184571eb0",
    "admArea": "Западный административный округ",
    "district": "район Тропарёво-Никулино",
    "location": "ТРЦ «ФЕСТИВАЛЬ»",
    "registrationNumber": "0220-77",
    "state": "аттракцион зарегистрирован",
    "locationType": "торгово-развлекательный комплекс",
    "global_id": "2386772615",
    "geodata_center": "",
    "geoarea": ""
  },
  {
    "name": "«BUFFALO»(MEDIUM)",
    "photo": "fef9f4d8-bad6-4017-8fb1-cb247f64a665",
    "admArea": "Западный административный округ",
    "district": "район Дорогомилово",
    "location": "ТРЦ «ЕВРОПЕЙСКИЙ»",
    "registrationNumber": "0242-77",
    "state": "регистрация аттракциона приостановлена",
    "locationType": "торгово-развлекательный комплекс",
    "global_id": "2386835250",
    "geodata_center": "",
    "geoarea": ""
  },
  {
    "name": "BUMPER CARS",
    "photo": "45d949fe-e9ca-406c-943f-e4502306a82d",
    "admArea": "Западный административный округ",
    "district": "район Тропарёво-Никулино",
    "location": "ТРЦ «ФЕСТИВАЛЬ»",
    "registrationNumber": "0221-77",
    "state": "аттракцион зарегистрирован",
    "locationType": "торгово-развлекательный комплекс",
    "global_id": "2386835268",
    "geodata_center": "",
    "geoarea": ""
  },
  {
    "name": "АИР ПАРК",
    "photo": "d021a2cf-bb72-4ca6-aa78-dbd283b1146e",
    "admArea": "Западный административный округ",
    "district": "район Очаково-Матвеевское",
    "location": "ТРЦ «KVARTAL WEST»",
    "registrationNumber": "2411-77",
    "state": "аттракцион зарегистрирован",
    "locationType": "торгово-развлекательный комплекс",
    "global_id": "2387014161",
    "geodata_center": "",
    "geoarea": ""
  },
  {
    "name": "КОЛЕСО ОБОЗРЕНИЯ - МОДЕЛЬ ПК 522.02",
    "photo": "cc92a420-5fa7-4026-80eb-a8b16f64e3ac",
    "admArea": "Восточный административный округ",
    "district": "район Измайлово",
    "location": "КУЛЬТУРНО-РАЗВЛЕКАТЕЛЬНЫЙ КОМПЛЕКС КРЕМЛЬ В ИЗМАЙЛОВО",
    "registrationNumber": "2440-77",
    "state": "аттракцион зарегистрирован",
    "locationType": "торгово-развлекательный комплекс",
    "global_id": "2507495833",
    "geodata_center": "",
    "geoarea": ""
  },
  {
    "name": "АТТРАКЦИОН «КАРТИНГ КЛУБ DIXXODROM»",
    "photo": "3153d9f3-578e-4105-8000-fcd31a2d20a3",
    "admArea": "Восточный административный округ",
    "district": "район Измайлово",
    "location": "КАРТИНГ КЛУБ DIXXODROM",
    "registrationNumber": "2429-77",
    "state": "регистрация аттракциона приостановлена",
    "locationType": "торгово-развлекательный комплекс",
    "global_id": "2392701310",
    "geodata_center": "",
    "geoarea": ""
  },
  {
    "name": "ВОДНАЯ ГОРКА ДЕТСКАЯ",
    "photo": "387c18a4-e0e8-4bad-aedc-658f71269e12",
    "admArea": "Восточный административный округ",
    "district": "район Перово",
    "location": "АКВАПАРК КАРИБИЯ",
    "registrationNumber": "2493-77",
    "state": "аттракцион зарегистрирован",
    "locationType": "торгово-развлекательный комплекс",
    "global_id": "2601933966",
    "geodata_center": "",
    "geoarea": ""
  }
]